time,sigma_x,sigma_y,sigma_z,sigma_roll,sigma_pitch,sigma_yaw,sigma_vx,sigma_vy,sigma_vz
1244086105.865000,1.713899,0.997470,1.944272,0.635740,3.885451,3.628085,0.120110,0.069474,0.075775
1244086105.885000,1.715383,0.998004,1.945307,0.633679,3.895541,3.627298,0.116814,0.058472,0.109399
1244086105.905000,1.716747,0.998277,1.946223,0.649035,3.914664,3.629401,0.118731,0.053646,0.135576
1244086105.925000,1.718278,0.998498,1.947223,0.652792,3.914785,3.630649,0.127031,0.061629,0.120387
1244086118.045000,1.612335,0.959516,1.795653,0.589496,3.891811,3.612542,0.118319,0.066119,0.195144
1244086118.065000,1.537789,0.932293,1.686422,0.548202,3.872411,3.600225,0.112923,0.068141,0.236595
1244086118.085000,1.482385,0.912195,1.603211,0.513471,3.862190,3.590063,0.107493,0.071106,0.244378
1244086118.105000,1.439571,0.896623,1.537292,0.486558,3.852086,3.583113,0.103695,0.072124,0.254466
1244086118.125000,1.405472,0.884132,1.483538,0.464800,3.842055,3.577504,0.100578,0.074814,0.266549
1244086118.145000,1.377695,0.873863,1.438672,0.445986,3.836561,3.573041,0.096961,0.078774,0.263794
1244086118.165000,1.354670,0.865263,1.400426,0.430309,3.828249,3.569150,0.094927,0.076887,0.269442
1244086118.185000,1.335347,0.857922,1.367330,0.416100,3.820738,3.565691,0.093251,0.076298,0.268773
1244086118.205000,1.318882,0.851564,1.338293,0.403010,3.817034,3.562987,0.091358,0.079352,0.271366
1244086118.225000,1.304674,0.845940,1.312626,0.393618,3.812719,3.561421,0.091768,0.082456,0.277554
1244086118.245000,1.292315,0.840944,1.289689,0.383382,3.811839,3.559913,0.091645,0.083321,0.277448
1244086118.265000,1.281480,0.836461,1.269004,0.373658,3.810892,3.558423,0.091724,0.085270,0.277706
1244086118.285000,1.271971,0.832413,1.250178,0.365017,3.809586,3.557363,0.092988,0.087809,0.279522
1244086118.305000,1.263524,0.828713,1.232956,0.356476,3.808961,3.556273,0.092238,0.088549,0.279717
1244086118.325000,1.255998,0.825308,1.217071,0.349564,3.808593,3.555480,0.093518,0.091009,0.282466
1244086118.345000,1.249253,0.822155,1.202334,0.343144,3.807655,3.554734,0.093304,0.091224,0.284238
1244086118.365000,1.243227,0.819245,1.188548,0.336634,3.807394,3.553989,0.091744,0.093613,0.283200
1244086118.385000,1.237791,0.816536,1.175620,0.331022,3.807057,3.553446,0.093423,0.094491,0.290631
1244086118.405000,1.232867,0.813978,1.163466,0.325238,3.806572,3.552698,0.094498,0.096007,0.295186
1244086118.425000,1.228399,0.811592,1.151970,0.320107,3.806261,3.551810,0.094539,0.096044,0.297671
1244086118.445000,1.224345,0.809323,1.141062,0.315630,3.805728,3.551082,0.094162,0.096204,0.300830
1244086118.465000,1.220683,0.807192,1.130658,0.311286,3.804167,3.550106,0.095259,0.096448,0.303363
1244086118.485000,1.217343,0.805154,1.120720,0.308482,3.803888,3.549534,0.095919,0.096363,0.307659
1244086118.505000,1.214295,0.803195,1.111220,0.306190,3.802656,3.548904,0.096803,0.096171,0.311720
1244086118.525000,1.211504,0.801339,1.102094,0.303174,3.802172,3.548168,0.097110,0.095056,0.314781
1244086118.545000,1.208945,0.799552,1.093337,0.300356,3.801342,3.547370,0.096858,0.095126,0.315935
1244086118.565000,1.206620,0.797851,1.084882,0.297365,3.801375,3.546635,0.096299,0.094882,0.313769
1244086118.585000,1.204477,0.796205,1.076747,0.295406,3.801664,3.546185,0.096638,0.095160,0.316754
1244086118.605000,1.202490,0.794622,1.068893,0.292879,3.802380,3.545210,0.095781,0.093973,0.318010
1244086118.625000,1.200650,0.793083,1.061287,0.291012,3.802465,3.544500,0.095664,0.093900,0.321162
1244086118.645000,1.198923,0.791600,1.053935,0.288738,3.803494,3.543638,0.094396,0.092930,0.320122
1244086118.665000,1.197317,0.790145,1.046776,0.287216,3.804486,3.543138,0.093461,0.092797,0.320435
1244086118.685000,1.195857,0.788753,1.039778,0.285561,3.803711,3.542728,0.093963,0.093171,0.325933
1244086118.705000,1.194485,0.787400,1.032954,0.283533,3.804535,3.542361,0.093402,0.092967,0.328162
1244086118.725000,1.193196,0.786078,1.026296,0.281560,3.805320,3.542053,0.092626,0.093344,0.329367
1244086118.745000,1.191981,0.784787,1.019783,0.279333,3.805949,3.541790,0.091834,0.094377,0.331687
1244086118.765000,1.190865,0.783546,1.013384,0.277519,3.806007,3.541572,0.090709,0.093750,0.333391
1244086118.785000,1.189831,0.782325,1.007105,0.276417,3.806206,3.541485,0.090771,0.093234,0.336596
1244086118.805000,1.188874,0.781140,1.000931,0.275454,3.806164,3.541430,0.090588,0.092281,0.341535
1244086118.825000,1.187993,0.779979,0.994832,0.274679,3.805024,3.541460,0.090863,0.092216,0.350752
1244086118.845000,1.187198,0.778852,0.988790,0.273330,3.803793,3.541423,0.091026,0.091305,0.359920
1244086118.865000,1.186478,0.777747,0.982821,0.272466,3.801522,3.541557,0.092328,0.090702,0.364846
1244086223.096000,1.235050,0.769439,0.981090,0.281481,3.800596,3.538112,0.108494,0.090119,0.360957
1244086223.116000,1.279607,0.761389,0.979394,0.289011,3.800381,3.534775,0.126357,0.089575,0.357267
1244086223.136000,1.320657,0.753583,0.977752,0.296816,3.799600,3.531798,0.136188,0.089014,0.353747
1244086223.156000,1.358682,0.746010,0.976156,0.303005,3.799019,3.528839,0.142952,0.088122,0.350489
1244086223.176000,1.394059,0.738660,0.974634,0.308994,3.798172,3.525849,0.152858,0.088186,0.347381
1244086223.196000,1.427116,0.731523,0.973169,0.315735,3.797918,3.523018,0.160482,0.087540,0.344027
1244086223.216000,1.458019,0.724590,0.971778,0.323084,3.797268,3.520704,0.167396,0.086851,0.340800
1244086223.236000,1.486997,0.717851,0.970471,0.331116,3.796632,3.518505,0.172799,0.086442,0.337928
1244086223.256000,1.514236,0.711299,0.969251,0.338259,3.795617,3.516318,0.176995,0.086074,0.334933
1244086223.276000,1.539883,0.704926,0.968094,0.344975,3.794493,3.514309,0.181191,0.085699,0.332246
1244086223.296000,1.564116,0.698726,0.967026,0.351625,3.793469,3.512576,0.186024,0.084981,0.329390
1244086223.316000,1.587002,0.692690,0.966035,0.358369,3.791796,3.511072,0.189551,0.084891,0.327318
1244086223.336000,1.608666,0.686814,0.965082,0.363740,3.791072,3.509442,0.193465,0.084478,0.324590
1244086223.356000,1.629196,0.681091,0.964187,0.368572,3.790099,3.507815,0.196762,0.084136,0.321891
1244086223.376000,1.648665,0.675516,0.963314,0.373968,3.789358,3.506465,0.200976,0.083577,0.319253
1244086223.396000,1.667201,0.670083,0.962490,0.378891,3.788940,3.505263,0.204496,0.082951,0.316771
1244086223.416000,1.684825,0.664788,0.961694,0.383522,3.788447,3.504124,0.206797,0.082407,0.314247
1244086223.436000,1.701605,0.659627,0.960902,0.386416,3.788254,3.502864,0.209693,0.082050,0.311788
1244086223.456000,1.717596,0.654595,0.960117,0.389277,3.788575,3.501891,0.212521,0.081439,0.309382
1244086223.476000,1.732838,0.649688,0.959337,0.392988,3.788953,3.501077,0.214823,0.080914,0.307031
1244086223.496000,1.747424,0.644901,0.958590,0.396522,3.789307,3.500301,0.216390,0.080308,0.304738
1244086223.516000,1.761362,0.640231,0.957858,0.399968,3.789864,3.499494,0.218553,0.079825,0.302498
1244086223.536000,1.774682,0.635674,0.957139,0.403341,3.790356,3.498686,0.221904,0.079259,0.300321
1244086223.556000,1.787417,0.631226,0.956426,0.407988,3.791147,3.498138,0.224097,0.078705,0.298204
1244086223.576000,1.799597,0.626885,0.955761,0.411649,3.791116,3.497578,0.225697,0.078155,0.296218
1244086223.596000,1.811264,0.622646,0.955119,0.414695,3.791234,3.496840,0.227130,0.077642,0.294477
1244086223.616000,1.822444,0.618507,0.954510,0.417891,3.791393,3.496158,0.229550,0.077130,0.292456
1244086563.522000,2.143323,0.614410,0.970904,0.416209,3.793715,3.485558,0.239211,0.100125,0.291216
1244086563.542000,2.415855,0.610412,0.986674,0.414706,3.796005,3.475245,0.249006,0.118104,0.290235
1244086563.562000,2.655192,0.606511,1.001883,0.413184,3.798190,3.465177,0.257315,0.133083,0.289190
1244086563.582000,2.869844,0.602706,1.016554,0.411860,3.800353,3.455358,0.265927,0.147071,0.288397
1244086563.602000,3.065182,0.598996,1.030728,0.410582,3.802428,3.445789,0.273178,0.158984,0.287266
1244086563.622000,3.244801,0.595376,1.044422,0.409343,3.804528,3.436448,0.280125,0.169882,0.286474
1244086563.642000,3.411363,0.591849,1.057676,0.408154,3.806542,3.427286,0.286595,0.180050,0.285368
1244086563.662000,3.566827,0.588412,1.070524,0.406959,3.808411,3.418351,0.292989,0.189230,0.284569
1244086563.682000,3.712709,0.585066,1.082981,0.405830,3.810278,3.409567,0.298717,0.198364,0.283564
1244086563.702000,3.850205,0.581809,1.095071,0.404728,3.812090,3.400932,0.304619,0.206791,0.282732
1244086563.722000,3.980255,0.578638,1.106811,0.403716,3.813881,3.392509,0.309896,0.215063,0.281719
1244086563.742000,4.103686,0.575554,1.118218,0.402625,3.815647,3.384270,0.315334,0.222807,0.281010
1244086563.762000,4.221169,0.572558,1.129323,0.401598,3.817273,3.376205,0.320101,0.230130,0.280006
1244086563.782000,4.333267,0.569647,1.140131,0.400583,3.818926,3.368340,0.325496,0.237319,0.279334
1244086563.802000,4.440465,0.566822,1.150670,0.399507,3.820495,3.360615,0.330028,0.244147,0.278490
1244086563.822000,4.543156,0.564078,1.160939,0.398452,3.822114,3.353070,0.334766,0.250655,0.277789
1244086563.842000,4.641724,0.561418,1.170962,0.397481,3.823666,3.345682,0.338930,0.256968,0.277084
1244086563.862000,4.736483,0.558842,1.180756,0.396598,3.825103,3.338417,0.343258,0.262959,0.276485
1244086563.882000,4.827713,0.556351,1.190337,0.395794,3.826458,3.331301,0.346870,0.268790,0.275863
1244086563.902000,4.915660,0.553945,1.199712,0.395080,3.827764,3.324314,0.350626,0.274230,0.275475
1244086563.922000,5.000531,0.551616,1.208894,0.394355,3.829039,3.317473,0.353995,0.279568,0.274939
1244086563.942000,5.082542,0.549371,1.217888,0.393581,3.830269,3.310758,0.357254,0.284722,0.274781
1244086563.962000,5.161872,0.547209,1.226709,0.392806,3.831477,3.304157,0.360213,0.289750,0.274284
1244086563.982000,5.238683,0.545131,1.235362,0.392103,3.832691,3.297702,0.363214,0.294727,0.274080
1244086564.002000,5.313123,0.543139,1.243858,0.391470,3.833861,3.291334,0.365729,0.299454,0.273640
1244086564.022000,5.385313,0.541217,1.252198,0.390823,3.835048,3.285282,0.367379,0.305240,0.273337
1244086564.042000,5.455378,0.539367,1.260382,0.390067,3.836240,3.279756,0.368911,0.310609,0.272918
1244086564.062000,5.523420,0.537607,1.268431,0.389302,3.837296,3.274294,0.370099,0.315770,0.272531
1244086564.082000,5.589542,0.535937,1.276346,0.388516,3.838349,3.268922,0.371006,0.320531,0.272266
1244086564.102000,5.653828,0.534357,1.284145,0.387717,3.839302,3.263622,0.371196,0.325062,0.271899
1244086564.122000,5.716354,0.532858,1.291831,0.386868,3.840250,3.258411,0.370924,0.329017,0.271655
1244086564.142000,5.777176,0.531448,1.299423,0.386032,3.841124,3.253316,0.369971,0.332760,0.271572
1244086564.162000,5.836349,0.530129,1.306926,0.385226,3.841948,3.248299,0.368741,0.335935,0.271323
1244086564.182000,5.893933,0.528902,1.314342,0.384457,3.842760,3.243364,0.367277,0.339185,0.271437
1244086564.202000,5.949978,0.527767,1.321696,0.383692,3.843421,3.238521,0.365653,0.341851,0.271244
1244086564.222000,6.004555,0.526713,1.328975,0.382890,3.844114,3.233754,0.364001,0.344614,0.271301
1244086564.242000,6.057704,0.525752,1.336201,0.382092,3.844687,3.229055,0.362357,0.346935,0.270970
1244086564.262000,6.109486,0.524883,1.343363,0.381352,3.845293,3.224461,0.360730,0.349552,0.270894
1244086564.282000,6.159957,0.524104,1.350477,0.380636,3.845794,3.219970,0.359130,0.351806,0.270562
1244086564.302000,6.209175,0.523415,1.357532,0.379987,3.846360,3.215545,0.357554,0.354218,0.270270
1244086564.322000,6.257206,0.522804,1.364529,0.379395,3.846935,3.211205,0.356026,0.356406,0.270041
1244086564.342000,6.304097,0.522279,1.371469,0.378824,3.847520,3.206967,0.354577,0.358813,0.269718
1244086564.362000,6.349906,0.521841,1.378340,0.378234,3.848218,3.202805,0.353257,0.361058,0.269405
1244086564.382000,6.394680,0.521488,1.385143,0.377688,3.848900,3.198718,0.352044,0.363484,0.269094
1244086564.402000,6.438471,0.521220,1.391866,0.377164,3.849653,3.194702,0.350937,0.365657,0.268672
1244086564.422000,6.481324,0.521026,1.398495,0.376652,3.850518,3.190712,0.350019,0.368068,0.268401
1244086564.442000,6.523282,0.520918,1.405036,0.376180,3.851448,3.186770,0.349177,0.370320,0.267933
1244086564.462000,6.564383,0.520896,1.411480,0.375749,3.852464,3.182888,0.348352,0.372738,0.267729
1244086564.482000,6.604657,0.520963,1.417828,0.375320,3.853549,3.179049,0.347554,0.374859,0.267266
1244086564.502000,6.644135,0.521117,1.424071,0.374888,3.854743,3.175251,0.346775,0.377227,0.267119
1244086564.522000,6.682837,0.521346,1.430224,0.374510,3.855850,3.171511,0.345917,0.379320,0.266761
1244086564.542000,6.720793,0.521661,1.436283,0.374123,3.856970,3.167853,0.344993,0.381548,0.266622
1244086564.562000,6.758022,0.522065,1.442256,0.373703,3.858059,3.164250,0.344045,0.383585,0.266374
1244086564.582000,6.794544,0.522554,1.448152,0.373240,3.859093,3.160703,0.342984,0.385724,0.266244
1244086564.602000,6.830379,0.523129,1.453971,0.372753,3.860100,3.157197,0.341933,0.387622,0.266163
1244086564.622000,6.865542,0.523771,1.459723,0.372215,3.861050,3.153739,0.340840,0.389593,0.266023
1244086564.642000,6.900057,0.524495,1.465402,0.371655,3.862025,3.150329,0.339774,0.391387,0.266071
1244086564.662000,6.933942,0.525301,1.471025,0.371125,3.862831,3.146985,0.338684,0.393243,0.265917
1244086564.682000,6.967218,0.526186,1.476583,0.370586,3.863670,3.143701,0.337648,0.394891,0.265816
1244086564.702000,6.999902,0.527149,1.482086,0.370018,3.864431,3.140442,0.336633,0.396680,0.265745
1244086564.722000,7.032011,0.528175,1.487534,0.369465,3.865152,3.137203,0.335661,0.398214,0.265508
1244086564.742000,7.063568,0.529279,1.492926,0.368939,3.865825,3.134014,0.334778,0.399971,0.265456
1244086564.762000,7.094591,0.530462,1.498270,0.368449,3.866444,3.130878,0.333925,0.401463,0.265113
1244086564.782000,7.125100,0.531719,1.503557,0.367963,3.867139,3.127813,0.333125,0.403189,0.265032
1244086564.802000,7.155110,0.533054,1.508795,0.367499,3.867782,3.124794,0.332361,0.404721,0.264658
1244086564.822000,7.184638,0.534465,1.513979,0.367056,3.868497,3.121840,0.331638,0.406404,0.264409
1244086564.842000,7.213691,0.535931,1.519113,0.366619,3.869207,3.118946,0.330914,0.407964,0.264144
1244086564.862000,7.242288,0.537472,1.524201,0.366176,3.869895,3.116090,0.330166,0.409536,0.263826
1244086564.882000,7.270442,0.539085,1.529241,0.365740,3.870609,3.113294,0.329454,0.411041,0.263668
1244086564.902000,7.298161,0.540770,1.534241,0.365311,3.871256,3.110537,0.328685,0.412591,0.263434
1244086564.922000,7.325458,0.542526,1.539198,0.364879,3.871912,3.107820,0.327922,0.413922,0.263262
1244086564.942000,7.352333,0.544335,1.544120,0.364515,3.872470,3.105116,0.327131,0.415410,0.263137
1244086564.962000,7.378805,0.546215,1.549004,0.364141,3.873051,3.102455,0.326326,0.416649,0.262935
1244086564.982000,7.404883,0.548163,1.553847,0.363784,3.873645,3.099810,0.325516,0.418111,0.262969
1244086565.002000,7.430577,0.550179,1.558658,0.363421,3.874223,3.097212,0.324711,0.419392,0.262748
1244086565.022000,7.455895,0.552276,1.563434,0.363079,3.874796,3.094516,0.323949,0.420205,0.262479
1244086565.042000,7.480839,0.554437,1.568168,0.362818,3.875340,3.091610,0.323181,0.421049,0.262125
1244086565.062000,7.505429,0.556655,1.572857,0.362554,3.875949,3.088731,0.322460,0.421738,0.261699
1244086565.082000,7.529674,0.558926,1.577501,0.362325,3.876578,3.085890,0.321765,0.422621,0.261384
1244086565.102000,7.553583,0.561250,1.582107,0.362066,3.877169,3.083082,0.321082,0.423293,0.260901
1244086565.122000,7.577167,0.563625,1.586664,0.361791,3.877804,3.080310,0.320467,0.424121,0.260567
1244086565.142000,7.600426,0.566029,1.591183,0.361519,3.878380,3.077565,0.319851,0.424790,0.260059
1244086565.162000,7.623376,0.568483,1.595658,0.361221,3.878962,3.074847,0.319251,0.425561,0.259715
1244086565.182000,7.646023,0.570988,1.600096,0.360952,3.879524,3.072156,0.318654,0.426228,0.259300
1244086565.202000,7.668375,0.573542,1.604496,0.360653,3.880084,3.069474,0.318073,0.426986,0.258906
1244086565.222000,7.690439,0.576145,1.608862,0.360351,3.880609,3.066817,0.317490,0.427671,0.258621
1244086565.242000,7.712212,0.578775,1.613195,0.360049,3.881116,3.064181,0.316891,0.428390,0.258226
1244086565.262000,7.733710,0.581451,1.617495,0.359708,3.881637,3.061594,0.316304,0.429050,0.257937
1244086565.282000,7.754937,0.584174,1.621769,0.359373,3.882102,3.059044,0.315695,0.429797,0.257587
1244086565.302000,7.775900,0.586942,1.626011,0.358995,3.882614,3.056538,0.315088,0.430410,0.257254
1244086565.322000,7.796597,0.589732,1.630222,0.358624,3.883116,3.054055,0.314495,0.431167,0.256934
1244086565.342000,7.817041,0.592567,1.634404,0.358239,3.883622,3.051605,0.313899,0.431749,0.256567
1244086565.362000,7.837240,0.595444,1.638553,0.357865,3.884165,3.049200,0.313322,0.432485,0.256365
1244086565.382000,7.857197,0.598366,1.642676,0.357494,3.884655,3.046806,0.312750,0.433047,0.255941
1244086565.402000,7.876920,0.601326,1.646764,0.357111,3.885205,3.044432,0.312217,0.433752,0.255726
1244086565.422000,7.896412,0.604331,1.650826,0.356776,3.885700,3.042074,0.311667,0.434335,0.255355
1244086565.442000,7.915668,0.607352,1.654858,0.356435,3.886217,3.039767,0.311144,0.434989,0.255037
1244086565.462000,7.934706,0.610413,1.658860,0.356105,3.886720,3.037489,0.310621,0.435594,0.254744
1244086565.482000,7.953528,0.613513,1.662837,0.355787,3.887178,3.035242,0.310117,0.436249,0.254400
1244086565.502000,7.972141,0.616654,1.666784,0.355484,3.887670,3.033026,0.309634,0.436831,0.254138
1244086565.522000,7.990548,0.619833,1.670709,0.355182,3.888105,3.030840,0.309139,0.437486,0.253809
1244086565.542000,8.008741,0.623026,1.674606,0.354885,3.888550,3.028679,0.308665,0.438024,0.253563
1244086565.562000,8.026737,0.626256,1.678483,0.354599,3.888948,3.026538,0.308204,0.438655,0.253256
1244086565.582000,8.044540,0.629524,1.682337,0.354294,3.889369,3.024428,0.307743,0.439169,0.252955
1244086565.602000,8.062154,0.632827,1.686168,0.353985,3.889794,3.022330,0.307270,0.439828,0.252727
1244086565.622000,8.079583,0.636164,1.689979,0.353697,3.890193,3.020262,0.306812,0.440314,0.252366
1244086565.642000,8.096818,0.639512,1.693764,0.353392,3.890617,3.018214,0.306372,0.440936,0.252179
1244086565.662000,8.113875,0.642894,1.697531,0.353088,3.890990,3.016179,0.305918,0.441422,0.251836
1244086565.682000,8.130758,0.646310,1.701274,0.352753,3.891387,3.014166,0.305487,0.442009,0.251598
1244086565.702000,8.147471,0.649759,1.704994,0.352420,3.891772,3.012175,0.305053,0.442518,0.251266
1244086565.722000,8.164016,0.653239,1.708693,0.352068,3.892154,3.010204,0.304618,0.443086,0.250973
1244086565.742000,8.180384,0.656728,1.712367,0.351743,3.892570,3.008254,0.304193,0.443565,0.250695
1244086565.762000,8.196592,0.660248,1.716020,0.351444,3.892990,3.006328,0.303787,0.444112,0.250366
1244086565.782000,8.212643,0.663799,1.719650,0.351146,3.893425,3.004414,0.303377,0.444604,0.250115
1244086565.802000,8.228539,0.667380,1.723261,0.350853,3.893819,3.002500,0.302974,0.445150,0.249801
1244086565.822000,8.244284,0.670990,1.726851,0.350558,3.894260,3.000602,0.302584,0.445593,0.249481
1244086565.842000,8.259867,0.674604,1.730420,0.350307,3.894698,2.998721,0.302198,0.446145,0.249222
1244086565.862000,8.275304,0.678247,1.733973,0.350040,3.895132,2.996850,0.301815,0.446566,0.248887
1244086565.882000,8.290599,0.681916,1.737506,0.349763,3.895545,2.995001,0.301440,0.447120,0.248650
1244086565.902000,8.305752,0.685614,1.741023,0.349494,3.895937,2.993160,0.301031,0.447537,0.248317
1244086565.922000,8.320767,0.689337,1.744520,0.349237,3.896328,2.991357,0.300635,0.448060,0.248071
1244086565.942000,8.335631,0.693062,1.748000,0.349003,3.896722,2.989567,0.300232,0.448489,0.247758
1244086565.962000,8.350361,0.696814,1.751464,0.348754,3.897110,2.987786,0.299826,0.448967,0.247486
1244086565.982000,8.364959,0.700590,1.754911,0.348527,3.897485,2.986029,0.299426,0.449406,0.247244
1244086566.002000,8.379426,0.704390,1.758345,0.348271,3.897840,2.984280,0.299055,0.449839,0.246954
1244086566.022000,8.393766,0.708212,1.761771,0.348000,3.898108,2.982570,0.298988,0.450307,0.246852
1244086566.042000,8.407961,0.712023,1.765217,0.347791,3.897983,2.980866,0.298718,0.450831,0.246708
1244086566.062000,8.422039,0.715858,1.768654,0.347563,3.897871,2.979183,0.298473,0.451266,0.246597
1244086566.082000,8.436000,0.719715,1.772081,0.347330,3.897787,2.977522,0.298234,0.451806,0.246534
1244086566.102000,8.449847,0.723597,1.775498,0.347104,3.897702,2.975868,0.297978,0.452255,0.246477
1244086566.122000,8.463581,0.727502,1.778909,0.346877,3.897600,2.974226,0.297723,0.452693,0.246356
1244086566.142000,8.477188,0.731401,1.782310,0.346636,3.897512,2.972608,0.297453,0.453138,0.246339
1244086566.162000,8.490686,0.735324,1.785703,0.346407,3.897426,2.971009,0.297163,0.453565,0.246230
1244086566.182000,8.504075,0.739272,1.789089,0.346197,3.897347,2.969421,0.296887,0.453954,0.246192
1244086566.202000,8.517357,0.743241,1.792467,0.346000,3.897294,2.967840,0.296595,0.454394,0.246069
1244086566.222000,8.530535,0.747230,1.795838,0.345821,3.897240,2.966315,0.296289,0.454810,0.246038
1244086566.242000,8.543591,0.751213,1.799203,0.345644,3.897156,2.964805,0.295983,0.455208,0.245890
1244086566.262000,8.556545,0.755217,1.802557,0.345467,3.897111,2.963322,0.295658,0.455567,0.245811
1244086566.282000,8.569396,0.759240,1.805906,0.345262,3.897058,2.961843,0.295300,0.455951,0.245681
1244086566.302000,8.582146,0.763283,1.809247,0.345059,3.897016,2.960374,0.294912,0.456281,0.245570
1244086566.322000,8.594795,0.767346,1.812582,0.344832,3.896978,2.958913,0.294515,0.456621,0.245443
1244086566.342000,8.607322,0.771402,1.815911,0.344604,3.896903,2.957465,0.294086,0.456913,0.245348
1244086566.362000,8.619748,0.775478,1.819238,0.344376,3.896779,2.956013,0.293610,0.457206,0.245136
1244086566.382000,8.632073,0.779573,1.822561,0.344151,3.896664,2.954573,0.293109,0.457465,0.244991
1244086566.402000,8.644296,0.783686,1.825882,0.343920,3.896548,2.953165,0.292619,0.457734,0.244879
1244086566.422000,8.656418,0.787818,1.829204,0.343696,3.896392,2.951767,0.292115,0.457953,0.244761
1244086566.442000,8.668417,0.791941,1.832525,0.343461,3.896255,2.950371,0.291579,0.458204,0.244584
1244086566.462000,8.680319,0.796082,1.835841,0.343240,3.896156,2.949002,0.291045,0.458435,0.244503
1244086566.482000,8.692125,0.800242,1.839154,0.343012,3.896076,2.947626,0.290539,0.458685,0.244392
1244086566.502000,8.703835,0.804420,1.842466,0.342797,3.895973,2.946260,0.290055,0.458893,0.244363
1244086566.522000,8.715454,0.808613,1.845774,0.342568,3.895876,2.944929,0.289541,0.459134,0.244279
1244086566.542000,8.726951,0.812796,1.849072,0.342332,3.895852,2.943592,0.289035,0.459337,0.244214
1244086566.562000,8.738360,0.816995,1.852363,0.342079,3.895847,2.942265,0.288544,0.459569,0.244121
1244086566.582000,8.749681,0.821211,1.855647,0.341829,3.895847,2.940950,0.288050,0.459745,0.244094
1244086566.602000,8.760915,0.825441,1.858922,0.341594,3.895865,2.939654,0.287553,0.459946,0.243943
1244086566.622000,8.772066,0.829687,1.862185,0.341354,3.895925,2.938367,0.287048,0.460131,0.243809
1244086566.642000,8.783093,0.833918,1.865437,0.341111,3.895988,2.937103,0.286555,0.460338,0.243658
1244086566.662000,8.794038,0.838164,1.868678,0.340871,3.896038,2.935847,0.286076,0.460499,0.243550
1244086566.682000,8.804901,0.842426,1.871911,0.340623,3.896068,2.934587,0.285597,0.460669,0.243395
1244086566.702000,8.815685,0.846703,1.875133,0.340369,3.896107,2.933324,0.285104,0.460825,0.243272
1244086566.722000,8.826389,0.850993,1.878346,0.340124,3.896132,2.932071,0.284601,0.460993,0.243052
1244086566.742000,8.836990,0.855270,1.881547,0.339903,3.896185,2.930827,0.284131,0.461123,0.242917
1244086566.762000,8.847515,0.859561,1.884738,0.339697,3.896235,2.929598,0.283668,0.461281,0.242777
1244086566.782000,8.857965,0.863866,1.887921,0.339475,3.896277,2.928365,0.283207,0.461397,0.242673
1244086566.802000,8.868341,0.868184,1.891093,0.339212,3.896355,2.927134,0.282738,0.461569,0.242509
1244086566.822000,8.878644,0.872516,1.894253,0.338962,3.896443,2.925908,0.282271,0.461733,0.242391
1244086566.842000,8.888859,0.876832,1.897399,0.338722,3.896534,2.924708,0.281825,0.461912,0.242213
1244086566.862000,8.899002,0.881159,1.900535,0.338452,3.896605,2.923525,0.281389,0.462046,0.242059
1244086566.882000,8.909077,0.885498,1.903661,0.338171,3.896662,2.922351,0.280943,0.462204,0.241862
1244086566.902000,8.919085,0.889847,1.906773,0.337872,3.896732,2.921204,0.280520,0.462343,0.241686
1244086566.922000,8.929026,0.894207,1.909875,0.337585,3.896788,2.920071,0.280114,0.462498,0.241510
1244086566.942000,8.938902,0.898579,1.912967,0.337299,3.896829,2.918943,0.279718,0.462602,0.241409
1244086566.962000,8.948698,0.902934,1.916047,0.337059,3.896886,2.917834,0.279332,0.462719,0.241248
1244086566.982000,8.958431,0.907301,1.919117,0.336812,3.896938,2.916722,0.278942,0.462807,0.241087
1244086567.002000,8.968101,0.911679,1.922176,0.336590,3.896982,2.915616,0.278552,0.462918,0.240889
1244086567.022000,8.977712,0.916067,1.925224,0.336349,3.897048,2.914518,0.278095,0.462926,0.240699
1244086567.042000,8.987242,0.920435,1.928260,0.336078,3.897127,2.913428,0.277668,0.462991,0.240472
1244086567.062000,8.996709,0.924811,1.931284,0.335785,3.897195,2.912352,0.277224,0.463056,0.240224
1244086567.082000,9.006116,0.929198,1.934296,0.335499,3.897266,2.911287,0.276794,0.463172,0.239975
1244086567.102000,9.015463,0.933595,1.937295,0.335238,3.897344,2.910233,0.276358,0.463274,0.239695
1244086567.122000,9.024751,0.938001,1.940281,0.334995,3.897424,2.909202,0.275950,0.463395,0.239470
1244086567.142000,9.033981,0.942416,1.943255,0.334750,3.897486,2.908176,0.275522,0.463469,0.239234
1244086567.162000,9.043138,0.946810,1.946217,0.334499,3.897537,2.907163,0.275123,0.463540,0.238974
1244086567.182000,9.052240,0.951211,1.949165,0.334219,3.897611,2.906143,0.274698,0.463588,0.238724
1244086567.202000,9.061285,0.955619,1.952102,0.333922,3.897680,2.905117,0.274306,0.463662,0.238492
1244086567.222000,9.070275,0.960034,1.955031,0.333618,3.897724,2.904104,0.273900,0.463696,0.238236
1244086567.242000,9.079196,0.964430,1.957946,0.333351,3.897766,2.903090,0.273509,0.463766,0.238016
1244086567.262000,9.088063,0.968835,1.960852,0.333085,3.897801,2.902090,0.273100,0.463799,0.237768
1244086567.282000,9.096876,0.973249,1.963746,0.332822,3.897827,2.901094,0.272704,0.463868,0.237497
1244086567.302000,9.105636,0.977671,1.966631,0.332537,3.897857,2.900103,0.272295,0.463914,0.237250
1244086567.322000,9.114345,0.982102,1.969506,0.332248,3.897892,2.899112,0.271912,0.463984,0.237022
1244086567.342000,9.122986,0.986510,1.972371,0.331928,3.897932,2.898133,0.271511,0.464026,0.236778
1244086567.362000,9.131578,0.990926,1.975226,0.331610,3.897982,2.897164,0.271137,0.464100,0.236560
1244086567.382000,9.140120,0.995348,1.978070,0.331296,3.898045,2.896217,0.270733,0.464156,0.236331
1244086567.402000,9.148613,0.999777,1.980905,0.330993,3.898104,2.895278,0.270361,0.464209,0.236079
1244086567.422000,9.157058,1.004213,1.983728,0.330692,3.898187,2.894350,0.269970,0.464218,0.235849
1244086567.442000,9.165440,1.008628,1.986539,0.330408,3.898275,2.893418,0.269598,0.464238,0.235613
1244086567.462000,9.173774,1.013049,1.989340,0.330121,3.898357,2.892493,0.269209,0.464216,0.235346
1244086567.482000,9.182061,1.017480,1.992132,0.329854,3.898415,2.891559,0.268840,0.464248,0.235128
1244086567.502000,9.190301,1.021917,1.994914,0.329580,3.898477,2.890623,0.268444,0.464269,0.234895
1244086567.522000,9.198495,1.026361,1.997685,0.329321,3.898550,2.889701,0.268071,0.464292,0.234655
1244086567.542000,9.206643,1.030813,2.000446,0.329063,3.898614,2.888789,0.267679,0.464309,0.234424
1244086567.562000,9.214731,1.035242,2.003198,0.328789,3.898671,2.887894,0.267316,0.464349,0.234186
1244086567.582000,9.222774,1.039679,2.005942,0.328509,3.898724,2.887011,0.266924,0.464379,0.233935
1244086567.602000,9.230774,1.044121,2.008677,0.328245,3.898778,2.886146,0.266550,0.464455,0.233706
1244086567.622000,9.238730,1.048570,2.011401,0.327975,3.898844,2.885285,0.266157,0.464465,0.233457
1244086567.642000,9.246627,1.052996,2.014116,0.327716,3.898896,2.884434,0.265783,0.464504,0.233211
1244086567.662000,9.254482,1.057429,2.016821,0.327441,3.898936,2.883579,0.265394,0.464497,0.232969
1244086567.682000,9.262293,1.061869,2.019516,0.327164,3.898955,2.882732,0.265026,0.464517,0.232746
1244086567.702000,9.270063,1.066314,2.022202,0.326884,3.898984,2.881890,0.264648,0.464493,0.232506
1244086567.722000,9.277791,1.070764,2.024879,0.326595,3.899013,2.881044,0.264281,0.464503,0.232266
1244086567.742000,9.285463,1.075193,2.027547,0.326331,3.899048,2.880194,0.263899,0.464481,0.232026
1244086567.762000,9.293095,1.079627,2.030203,0.326090,3.899112,2.879357,0.263547,0.464493,0.231784
1244086567.782000,9.300687,1.084069,2.032851,0.325866,3.899169,2.878533,0.263169,0.464472,0.231538
1244086567.802000,9.308239,1.088517,2.035492,0.325634,3.899229,2.877714,0.262820,0.464477,0.231330
1244086567.822000,9.315752,1.092970,2.038126,0.325387,3.899268,2.876892,0.262457,0.464478,0.231103
1244086567.842000,9.323226,1.097428,2.040754,0.325136,3.899287,2.876079,0.262110,0.464493,0.230883
1244086567.862000,9.330646,1.101863,2.043373,0.324913,3.899311,2.875277,0.261742,0.464505,0.230651
1244086567.882000,9.338029,1.106305,2.045986,0.324692,3.899327,2.874475,0.261405,0.464515,0.230407
1244086567.902000,9.345374,1.110750,2.048594,0.324463,3.899332,2.873687,0.261040,0.464493,0.230181
1244086567.922000,9.352682,1.115201,2.051196,0.324219,3.899336,2.872892,0.260697,0.464504,0.229966
1244086567.942000,9.359953,1.119656,2.053791,0.323968,3.899363,2.872093,0.260345,0.464469,0.229741
1244086567.962000,9.367174,1.124088,2.056377,0.323733,3.899405,2.871291,0.260001,0.464469,0.229549
1244086567.982000,9.374358,1.128526,2.058958,0.323498,3.899456,2.870478,0.259643,0.464441,0.229352
1244086568.002000,9.381508,1.132969,2.061530,0.323266,3.899518,2.869681,0.259303,0.464428,0.229128
1244086568.022000,9.388622,1.137420,2.064092,0.323017,3.899596,2.868873,0.258882,0.464388,0.228959
1244086568.042000,9.395680,1.141852,2.066642,0.322720,3.899747,2.868028,0.258480,0.464373,0.228780
1244086568.062000,9.402699,1.146291,2.069183,0.322418,3.899913,2.867201,0.258054,0.464360,0.228585
1244086568.082000,9.409678,1.150737,2.071718,0.322107,3.900087,2.866377,0.257645,0.464369,0.228408
1244086568.102000,9.416620,1.155188,2.074245,0.321807,3.900244,2.865569,0.257224,0.464361,0.228222
1244086568.122000,9.423523,1.159643,2.076765,0.321504,3.900396,2.864778,0.256822,0.464352,0.228002
1244086568.142000,9.430391,1.164104,2.079277,0.321213,3.900560,2.863984,0.256405,0.464338,0.227811
1244086568.162000,9.437206,1.168542,2.081782,0.320911,3.900719,2.863183,0.256009,0.464323,0.227616
1244086568.182000,9.443985,1.172984,2.084279,0.320611,3.900874,2.862400,0.255594,0.464270,0.227373
1244086568.202000,9.450726,1.177430,2.086767,0.320323,3.901025,2.861632,0.255192,0.464239,0.227148
1244086568.222000,9.457431,1.181883,2.089249,0.320027,3.901163,2.860856,0.254781,0.464168,0.226906
1244086568.242000,9.464099,1.186343,2.091722,0.319753,3.901280,2.860079,0.254389,0.464108,0.226662
1244086568.262000,9.470716,1.190779,2.094189,0.319490,3.901368,2.859311,0.253982,0.464056,0.226439
1244086568.282000,9.477298,1.195222,2.096647,0.319227,3.901472,2.858548,0.253596,0.464002,0.226220
1244086568.302000,9.483845,1.199673,2.099100,0.318949,3.901580,2.857782,0.253196,0.463946,0.226025
1244086568.322000,9.490358,1.204130,2.101545,0.318698,3.901707,2.857039,0.252814,0.463933,0.225850
1244086568.342000,9.496824,1.208564,2.103984,0.318428,3.901826,2.856299,0.252414,0.463905,0.225660
1244086568.362000,9.503255,1.213002,2.106416,0.318148,3.901961,2.855568,0.252038,0.463875,0.225459
1244086568.382000,9.509655,1.217445,2.108844,0.317846,3.902083,2.854847,0.251645,0.463842,0.225270
1244086568.402000,9.516021,1.221893,2.111266,0.317560,3.902192,2.854131,0.251270,0.463842,0.225105
1244086568.422000,9.522357,1.226345,2.113682,0.317284,3.902323,2.853413,0.250885,0.463820,0.224913
1244086568.442000,9.528646,1.230773,2.116091,0.317020,3.902438,2.852692,0.250518,0.463813,0.224732
1244086568.462000,9.534905,1.235204,2.118492,0.316758,3.902555,2.851972,0.250133,0.463770,0.224568
1244086568.482000,9.541133,1.239641,2.120890,0.316487,3.902653,2.851244,0.249768,0.463726,0.224330
1244086568.502000,9.547330,1.244081,2.123279,0.316214,3.902786,2.850513,0.249387,0.463678,0.224112
1244086568.522000,9.553497,1.248524,2.125661,0.315921,3.902920,2.849783,0.249036,0.463614,0.223884
1244086568.542000,9.559621,1.252941,2.128034,0.315636,3.903050,2.849069,0.248656,0.463549,0.223644
1244086568.562000,9.565714,1.257362,2.130399,0.315361,3.903185,2.848360,0.248298,0.463518,0.223398
1244086568.582000,9.571779,1.261788,2.132755,0.315102,3.903335,2.847661,0.247926,0.463482,0.223160
1244086568.602000,9.577816,1.266219,2.135100,0.314846,3.903486,2.846972,0.247578,0.463439,0.222908
1244086568.622000,9.583825,1.270652,2.137436,0.314583,3.903634,2.846293,0.247209,0.463388,0.222656
1244086568.642000,9.589792,1.275059,2.139761,0.314315,3.903812,2.845617,0.246864,0.463331,0.222456
1244086568.662000,9.595731,1.279468,2.142079,0.314050,3.903972,2.844939,0.246505,0.463292,0.222223
1244086568.682000,9.601644,1.283881,2.144389,0.313764,3.904137,2.844253,0.246165,0.463271,0.222008
1244086568.702000,9.607530,1.288297,2.146693,0.313492,3.904279,2.843570,0.245802,0.463231,0.221783
1244086568.722000,9.613389,1.292715,2.148990,0.313244,3.904435,2.842904,0.245467,0.463188,0.221534
1244086568.742000,9.619206,1.297107,2.151279,0.313001,3.904594,2.842240,0.245109,0.463126,0.221309
1244086568.762000,9.624996,1.301502,2.153561,0.312766,3.904756,2.841581,0.244776,0.463107,0.221073
1244086568.782000,9.630761,1.305900,2.155837,0.312512,3.904933,2.840915,0.244418,0.463042,0.220819
1244086568.802000,9.636499,1.310301,2.158108,0.312253,3.905114,2.840250,0.244088,0.462993,0.220602
1244086568.822000,9.642212,1.314707,2.160373,0.311990,3.905292,2.839583,0.243738,0.462962,0.220375
1244086568.842000,9.647884,1.319085,2.162631,0.311712,3.905475,2.838927,0.243413,0.462900,0.220135
1244086568.862000,9.653533,1.323467,2.164881,0.311453,3.905679,2.838275,0.243064,0.462841,0.219948
1244086568.882000,9.659157,1.327852,2.167125,0.311179,3.905885,2.837617,0.242738,0.462787,0.219720
1244086568.902000,9.664757,1.332240,2.169362,0.310900,3.906085,2.836950,0.242392,0.462736,0.219498
1244086568.922000,9.670332,1.336631,2.171591,0.310610,3.906286,2.836286,0.242071,0.462699,0.219274
1244086568.942000,9.675868,1.340995,2.173813,0.310330,3.906476,2.835636,0.241731,0.462633,0.219052
1244086568.962000,9.681382,1.345362,2.176026,0.310064,3.906675,2.834994,0.241418,0.462599,0.218813
1244086568.982000,9.686873,1.349733,2.178231,0.309812,3.906889,2.834346,0.241082,0.462557,0.218586
1244086569.002000,9.692342,1.354107,2.180429,0.309583,3.907084,2.833709,0.240774,0.462520,0.218348
1244086569.022000,9.697789,1.358484,2.182619,0.309365,3.907279,2.833076,0.240435,0.462364,0.218075
1244086569.042000,9.703198,1.362826,2.184798,0.309164,3.907495,2.832490,0.240131,0.462288,0.217817
1244086569.062000,9.708586,1.367170,2.186971,0.308948,3.907701,2.831898,0.239821,0.462179,0.217570
1244086569.082000,9.713952,1.371514,2.189141,0.308712,3.907903,2.831305,0.239520,0.462088,0.217322
1244086569.102000,9.719296,1.375859,2.191306,0.308476,3.908117,2.830707,0.239212,0.462018,0.217082
1244086569.122000,9.724621,1.380205,2.193462,0.308252,3.908367,2.830131,0.238921,0.461959,0.216847
1244086569.142000,9.729909,1.384522,2.195615,0.308030,3.908595,2.829554,0.238604,0.461853,0.216593
1244086569.162000,9.735175,1.388841,2.197760,0.307808,3.908846,2.828971,0.238317,0.461792,0.216376
1244086569.182000,9.740422,1.393162,2.199900,0.307575,3.909079,2.828398,0.238009,0.461706,0.216158
1244086569.202000,9.745649,1.397482,2.202032,0.307321,3.909356,2.827819,0.237726,0.461629,0.215938
1244086569.222000,9.750859,1.401802,2.204154,0.307087,3.909671,2.827247,0.237429,0.461570,0.215710
1244086569.242000,9.756033,1.406094,2.206266,0.306852,3.909979,2.826671,0.237148,0.461483,0.215493
1244086569.262000,9.761188,1.410387,2.208370,0.306635,3.910278,2.826110,0.236856,0.461375,0.215229
1244086569.282000,9.766325,1.414682,2.210463,0.306424,3.910585,2.825533,0.236578,0.461284,0.215012
1244086569.302000,9.771444,1.418977,2.212547,0.306222,3.910882,2.824959,0.236286,0.461190,0.214758
1244086569.322000,9.776545,1.423274,2.214622,0.306007,3.911165,2.824369,0.236020,0.461083,0.214504
1244086569.342000,9.781611,1.427542,2.216688,0.305813,3.911431,2.823794,0.235731,0.460990,0.214249
1244086569.362000,9.786660,1.431810,2.218746,0.305609,3.911682,2.823219,0.235456,0.460892,0.213980
1244086569.382000,9.791690,1.436081,2.220797,0.305427,3.911923,2.822654,0.235174,0.460787,0.213711
1244086569.402000,9.796703,1.440352,2.222840,0.305238,3.912156,2.822095,0.234905,0.460731,0.213471
1244086569.422000,9.801699,1.444624,2.224877,0.305036,3.912392,2.821538,0.234624,0.460643,0.213222
1244086569.442000,9.806660,1.448865,2.226908,0.304837,3.912617,2.821003,0.234350,0.460583,0.212973
1244086569.462000,9.811605,1.453108,2.228932,0.304602,3.912861,2.820459,0.234072,0.460474,0.212752
1244086569.482000,9.816533,1.457353,2.230949,0.304373,3.913115,2.819909,0.233812,0.460407,0.212527
1244086569.502000,9.821446,1.461599,2.232959,0.304128,3.913371,2.819357,0.233543,0.460297,0.212301
1244086569.522000,9.826342,1.465847,2.234961,0.303887,3.913631,2.818805,0.233289,0.460248,0.212085
1244086569.542000,9.831206,1.470063,2.236956,0.303632,3.913886,2.818259,0.233021,0.460175,0.211858
1244086569.562000,9.836055,1.474281,2.238943,0.303376,3.914131,2.817720,0.232764,0.460114,0.211611
1244086569.582000,9.840889,1.478498,2.240921,0.303109,3.914397,2.817187,0.232502,0.460056,0.211395
1244086569.602000,9.845709,1.482715,2.242893,0.302841,3.914640,2.816663,0.232259,0.460029,0.211151
1244086569.622000,9.850514,1.486933,2.244858,0.302583,3.914881,2.816137,0.231997,0.459965,0.210922
1244086569.642000,9.855287,1.491122,2.246817,0.302339,3.915104,2.815601,0.231764,0.459902,0.210682
1244086569.662000,9.860046,1.495312,2.248771,0.302108,3.915325,2.815063,0.231516,0.459835,0.210441
1244086569.682000,9.864790,1.499502,2.250723,0.301858,3.915520,2.814524,0.231283,0.459764,0.210188
1244086569.702000,9.869520,1.503693,2.252669,0.301609,3.915735,2.813992,0.231027,0.459692,0.209961
1244086569.722000,9.874235,1.507883,2.254613,0.301351,3.915924,2.813460,0.230788,0.459625,0.209714
1244086569.742000,9.878918,1.512046,2.256548,0.301118,3.916145,2.812926,0.230542,0.459553,0.209481
1244086569.762000,9.883587,1.516210,2.258478,0.300893,3.916353,2.812390,0.230303,0.459501,0.209242
1244086569.782000,9.888242,1.520376,2.260401,0.300678,3.916573,2.811851,0.230052,0.459417,0.209017
1244086569.802000,9.892885,1.524543,2.262315,0.300479,3.916830,2.811311,0.229822,0.459364,0.208790
1244086569.822000,9.897514,1.528713,2.264221,0.300273,3.917090,2.810762,0.229576,0.459261,0.208566
1244086569.842000,9.902130,1.532886,2.266119,0.300093,3.917338,2.810219,0.229353,0.459199,0.208337
1244086569.862000,9.906716,1.537031,2.268009,0.299888,3.917595,2.809666,0.229109,0.459121,0.208124
1244086569.882000,9.911288,1.541176,2.269892,0.299699,3.917818,2.809119,0.228878,0.459040,0.207879
1244086569.902000,9.915848,1.545323,2.271768,0.299500,3.918049,2.808571,0.228648,0.458966,0.207661
1244086569.922000,9.920395,1.549471,2.273642,0.299294,3.918242,2.808032,0.228422,0.458920,0.207425
1244086569.942000,9.924929,1.553622,2.275509,0.299103,3.918442,2.807502,0.228177,0.458846,0.207209
1244086569.962000,9.929431,1.557742,2.277372,0.298894,3.918625,2.806977,0.227963,0.458788,0.206992
1244086569.982000,9.933922,1.561864,2.279231,0.298681,3.918821,2.806448,0.227727,0.458740,0.206784
1244086570.002000,9.938400,1.565987,2.281088,0.298458,3.919015,2.805914,0.227511,0.458703,0.206580
1244086570.022000,9.942866,1.570110,2.282941,0.298249,3.919213,2.805395,0.227432,0.458669,0.206438
1244086570.042000,9.947325,1.574231,2.284794,0.298009,3.919387,2.804881,0.227286,0.458630,0.206264
1244086570.062000,9.951776,1.578352,2.286643,0.297776,3.919568,2.804376,0.227150,0.458624,0.206095
1244086570.082000,9.956191,1.582428,2.288486,0.297551,3.919759,2.803868,0.226999,0.458590,0.205919
1244086570.102000,9.960598,1.586504,2.290323,0.297333,3.919940,2.803363,0.226853,0.458548,0.205726
1244086570.122000,9.964997,1.590581,2.292155,0.297110,3.920111,2.802848,0.226704,0.458480,0.205527
1244086570.142000,9.969387,1.594658,2.293982,0.296891,3.920273,2.802338,0.226579,0.458429,0.205314
1244086570.162000,9.973749,1.598704,2.295803,0.296664,3.920436,2.801826,0.226427,0.458347,0.205106
1244086570.182000,9.978103,1.602751,2.297617,0.296473,3.920606,2.801317,0.226283,0.458288,0.204896
1244086570.202000,9.982448,1.606802,2.299426,0.296274,3.920770,2.800804,0.226136,0.458236,0.204681
1244086570.222000,9.986784,1.610853,2.301232,0.296079,3.920904,2.800302,0.226001,0.458186,0.204473
1244086570.242000,9.991112,1.614905,2.303035,0.295887,3.921041,2.799820,0.225852,0.458152,0.204270
1244086570.262000,9.995431,1.618958,2.304837,0.295679,3.921180,2.799347,0.225727,0.458124,0.204082
1244086570.282000,9.999722,1.622978,2.306635,0.295453,3.921330,2.798873,0.225575,0.458086,0.203894
1244086570.302000,10.004006,1.626999,2.308429,0.295242,3.921493,2.798402,0.225444,0.458067,0.203742
1244086570.322000,10.008282,1.631021,2.310221,0.295037,3.921659,2.797934,0.225290,0.458062,0.203552
1244086570.342000,10.012550,1.635046,2.312010,0.294849,3.921843,2.797470,0.225165,0.458036,0.203392
1244086570.362000,10.016812,1.639071,2.313795,0.294677,3.922029,2.797009,0.225020,0.457974,0.203205
1244086570.382000,10.021046,1.643065,2.315574,0.294497,3.922224,2.796546,0.224909,0.457913,0.203033
1244086570.402000,10.025274,1.647060,2.317349,0.294307,3.922409,2.796087,0.224772,0.457870,0.202852
1244086570.422000,10.029495,1.651056,2.319119,0.294118,3.922596,2.795638,0.224656,0.457817,0.202662
1244086570.442000,10.033708,1.655053,2.320884,0.293920,3.922767,2.795194,0.224520,0.457759,0.202466
1244086570.462000,10.037914,1.659053,2.322646,0.293730,3.922924,2.794755,0.224391,0.457712,0.202260
1244086570.482000,10.042084,1.663009,2.324400,0.293557,3.923081,2.794308,0.224256,0.457682,0.202056
1244086570.502000,10.046246,1.666967,2.326149,0.293408,3.923219,2.793866,0.224141,0.457640,0.201842
1244086570.522000,10.050402,1.670928,2.327893,0.293243,3.923358,2.793428,0.224010,0.457589,0.201656
1244086570.542000,10.054551,1.674890,2.329631,0.293087,3.923509,2.792998,0.223885,0.457547,0.201458
1244086570.562000,10.058694,1.678855,2.331362,0.292927,3.923680,2.792564,0.223740,0.457512,0.201252
1244086570.582000,10.062809,1.682788,2.333088,0.292770,3.923835,2.792130,0.223616,0.457465,0.201056
1244086570.602000,10.066920,1.686724,2.334804,0.292656,3.924005,2.791697,0.223477,0.457433,0.200861
1244086570.622000,10.071024,1.690662,2.336515,0.292515,3.924161,2.791273,0.223374,0.457381,0.200666
1244086570.642000,10.075123,1.694602,2.338220,0.292390,3.924318,2.790855,0.223237,0.457364,0.200486
1244086570.662000,10.079215,1.698543,2.339918,0.292249,3.924483,2.790435,0.223120,0.457316,0.200301
1244086570.682000,10.083281,1.702451,2.341615,0.292105,3.924608,2.790015,0.222999,0.457282,0.200099
1244086570.702000,10.087339,1.706361,2.343306,0.291966,3.924747,2.789583,0.222889,0.457253,0.199906
1244086570.722000,10.091392,1.710271,2.344997,0.291814,3.924851,2.789151,0.222756,0.457219,0.199713
1244086570.742000,10.095438,1.714183,2.346683,0.291683,3.924987,2.788725,0.222643,0.457180,0.199520
1244086570.762000,10.099479,1.718097,2.348368,0.291532,3.925137,2.788291,0.222543,0.457133,0.199351
1244086570.782000,10.103494,1.721980,2.350048,0.291400,3.925289,2.787857,0.222452,0.457094,0.199204
1244086570.802000,10.107504,1.725867,2.351725,0.291263,3.925454,2.787422,0.222335,0.457032,0.199027
1244086570.822000,10.111509,1.729754,2.353393,0.291152,3.925651,2.786994,0.222249,0.456985,0.198883
1244086570.842000,10.115510,1.733645,2.355055,0.291029,3.925843,2.786561,0.222136,0.456935,0.198706
1244086570.862000,10.119507,1.737535,2.356711,0.290918,3.926034,2.786139,0.222057,0.456875,0.198507
1244086570.882000,10.123478,1.741395,2.358358,0.290812,3.926233,2.785717,0.221942,0.456841,0.198321
1244086570.902000,10.127446,1.745255,2.360000,0.290679,3.926424,2.785291,0.221844,0.456777,0.198115
1244086570.922000,10.131409,1.749116,2.361632,0.290592,3.926618,2.784867,0.221741,0.456738,0.197910
1244086570.942000,10.135368,1.752978,2.363259,0.290468,3.926802,2.784433,0.221648,0.456689,0.197702
1244086570.962000,10.139322,1.756842,2.364879,0.290389,3.926982,2.784002,0.221542,0.456659,0.197498
1244086570.982000,10.143251,1.760676,2.366493,0.290299,3.927154,2.783568,0.221453,0.456597,0.197290
1244086571.002000,10.147175,1.764511,2.368104,0.290181,3.927306,2.783129,0.221365,0.456548,0.197105
1244086571.022000,10.151094,1.768346,2.369713,0.290089,3.927430,2.782715,0.221329,0.456411,0.196886
1244086571.042000,10.155011,1.772172,2.371317,0.290023,3.927530,2.782365,0.221277,0.456283,0.196673
1244086571.062000,10.158924,1.775997,2.372914,0.289998,3.927631,2.782014,0.221252,0.456136,0.196460
1244086571.082000,10.162811,1.779789,2.374505,0.289952,3.927737,2.781654,0.221221,0.456012,0.196255
1244086571.102000,10.166695,1.783578,2.376093,0.289913,3.927832,2.781312,0.221192,0.455841,0.196039
1244086571.122000,10.170575,1.787364,2.377674,0.289867,3.927957,2.780966,0.221153,0.455718,0.195846
1244086571.142000,10.174451,1.791148,2.379253,0.289793,3.928068,2.780608,0.221139,0.455545,0.195631
1244086571.162000,10.178325,1.794929,2.380824,0.289730,3.928204,2.780249,0.221104,0.455430,0.195422
1244086571.182000,10.182173,1.798673,2.382390,0.289646,3.928324,2.779897,0.221087,0.455260,0.195209
1244086571.202000,10.186018,1.802415,2.383948,0.289612,3.928460,2.779556,0.221055,0.455152,0.195003
1244086571.222000,10.189860,1.806155,2.385498,0.289544,3.928616,2.779208,0.221075,0.454991,0.194795
1244086571.242000,10.193701,1.809891,2.387038,0.289530,3.928790,2.778874,0.221059,0.454875,0.194593
1244086571.262000,10.197541,1.813627,2.388567,0.289504,3.928988,2.778531,0.221062,0.454692,0.194383
1244086571.282000,10.201355,1.817328,2.390084,0.289522,3.929188,2.778189,0.221053,0.454559,0.194185
1244086571.302000,10.205168,1.821028,2.391589,0.289514,3.929393,2.777847,0.221070,0.454391,0.193977
1244086571.322000,10.208980,1.824724,2.393087,0.289486,3.929574,2.777510,0.221068,0.454283,0.193769
1244086571.342000,10.212791,1.828417,2.394574,0.289454,3.929764,2.777172,0.221094,0.454137,0.193564
1244086571.362000,10.216600,1.832106,2.396056,0.289377,3.929909,2.776830,0.221068,0.454029,0.193356
1244086571.382000,10.220383,1.835760,2.397528,0.289320,3.930056,2.776485,0.221067,0.453889,0.193160
1244086571.402000,10.224163,1.839412,2.398995,0.289264,3.930182,2.776131,0.221086,0.453772,0.192954
1244086571.422000,10.227942,1.843061,2.400456,0.289239,3.930286,2.775781,0.221094,0.453635,0.192749
1244086571.442000,10.231718,1.846711,2.401910,0.289236,3.930393,2.775430,0.221092,0.453524,0.192544
1244086571.462000,10.235492,1.850359,2.403358,0.289229,3.930503,2.775076,0.221153,0.453371,0.192339
1244086571.482000,10.239241,1.853974,2.404800,0.289228,3.930622,2.774726,0.221154,0.453254,0.192140
1244086571.502000,10.242987,1.857587,2.406236,0.289194,3.930754,2.774367,0.221187,0.453071,0.191937
1244086571.522000,10.246733,1.861199,2.407667,0.289162,3.930904,2.774005,0.221212,0.452961,0.191741
1244086571.542000,10.250477,1.864807,2.409093,0.289102,3.931047,2.773642,0.221249,0.452827,0.191540
1244086571.562000,10.254221,1.868415,2.410510,0.289071,3.931206,2.773284,0.221237,0.452720,0.191339
1244086571.582000,10.257964,1.872021,2.411918,0.289067,3.931391,2.772933,0.221265,0.452582,0.191139
1244086695.035000,10.254217,1.870531,2.410023,0.288803,3.931844,2.773616,0.221042,0.452230,0.191271
1244086695.055000,10.250487,1.869036,2.408130,0.288534,3.932303,2.774305,0.220828,0.451903,0.191280
1244086695.075000,10.246771,1.867536,2.406241,0.288279,3.932732,2.774991,0.220618,0.451553,0.191277
1244086695.095000,10.243071,1.866032,2.404355,0.288004,3.933169,2.775674,0.220412,0.451214,0.191287
1244086695.115000,10.239387,1.864523,2.402472,0.287742,3.933618,2.776342,0.220186,0.450855,0.191336
1244086695.135000,10.235718,1.863010,2.400591,0.287476,3.934076,2.777028,0.219970,0.450547,0.191279
1244086695.155000,10.232063,1.861493,2.398713,0.287212,3.934547,2.777719,0.219751,0.450207,0.191289
1244086695.175000,10.228424,1.859971,2.396838,0.286944,3.935009,2.778396,0.219539,0.449865,0.191192
1244086695.195000,10.224801,1.858446,2.394964,0.286700,3.935535,2.779086,0.219327,0.449565,0.191113
1244086695.215000,10.221193,1.856917,2.393092,0.286460,3.936061,2.779798,0.219116,0.449250,0.191050
1244086695.235000,10.217602,1.855384,2.391222,0.286223,3.936634,2.780498,0.218900,0.448948,0.190989
1244086695.255000,10.214026,1.853847,2.389353,0.285965,3.937169,2.781205,0.218682,0.448633,0.190927
1244086695.275000,10.210466,1.852307,2.387486,0.285694,3.937716,2.781926,0.218461,0.448294,0.191001
1244086695.295000,10.206921,1.850764,2.385621,0.285425,3.938249,2.782642,0.218254,0.447977,0.191054
1244086695.315000,10.203392,1.849218,2.383756,0.285150,3.938814,2.783357,0.218044,0.447667,0.191068
1244086695.335000,10.199878,1.847668,2.381892,0.284882,3.939348,2.784058,0.217832,0.447329,0.191156
1244086695.355000,10.196376,1.846117,2.380028,0.284632,3.939893,2.784759,0.217621,0.446998,0.191185
1244086695.375000,10.192890,1.844563,2.378166,0.284400,3.940394,2.785439,0.217416,0.446681,0.191281
1244086695.395000,10.189418,1.843006,2.376306,0.284159,3.940895,2.786114,0.217201,0.446385,0.191357
1244086695.415000,10.185963,1.841446,2.374445,0.283906,3.941432,2.786785,0.216992,0.446105,0.191387
1244086695.435000,10.182522,1.839884,2.372587,0.283653,3.941952,2.787450,0.216782,0.445825,0.191357
1244086695.455000,10.179096,1.838318,2.370729,0.283395,3.942477,2.788126,0.216569,0.445534,0.191367
1244086695.475000,10.175686,1.836750,2.368874,0.283138,3.942959,2.788791,0.216358,0.445270,0.191448
1244086695.495000,10.172292,1.835179,2.367019,0.282890,3.943440,2.789454,0.216142,0.445009,0.191410
1244086695.515000,10.168913,1.833606,2.365167,0.282620,3.943932,2.790120,0.215927,0.444756,0.191432
1244086695.535000,10.165550,1.832030,2.363315,0.282358,3.944437,2.790789,0.215712,0.444506,0.191444
1244086695.555000,10.162202,1.830453,2.361464,0.282091,3.944930,2.791460,0.215500,0.444251,0.191513
1244086695.575000,10.158870,1.828873,2.359615,0.281820,3.945385,2.792131,0.215287,0.443969,0.191604
1244086695.595000,10.155553,1.827291,2.357767,0.281544,3.945848,2.792807,0.215075,0.443707,0.191574
1244086695.615000,10.152253,1.825707,2.355922,0.281269,3.946348,2.793472,0.214862,0.443454,0.191543
1244086695.635000,10.148966,1.824121,2.354077,0.280997,3.946832,2.794134,0.214651,0.443180,0.191714
1244086695.655000,10.145695,1.822534,2.352233,0.280725,3.947291,2.794806,0.214440,0.442931,0.191866
1244086695.675000,10.142440,1.820945,2.350392,0.280455,3.947723,2.795463,0.214239,0.442684,0.191885
1244086695.695000,10.139200,1.819353,2.348553,0.280185,3.948151,2.796125,0.214030,0.442487,0.191867
1244086695.715000,10.135978,1.817760,2.346715,0.279913,3.948595,2.796793,0.213826,0.442268,0.191918
1244086695.735000,10.132771,1.816166,2.344878,0.279641,3.949067,2.797470,0.213620,0.442064,0.191893
1244086695.755000,10.129579,1.814571,2.343043,0.279370,3.949520,2.798141,0.213445,0.441853,0.191882
1244086695.775000,10.126404,1.812976,2.341209,0.279099,3.949963,2.798824,0.213244,0.441650,0.191845
1244086695.795000,10.123244,1.811378,2.339378,0.278828,3.950397,2.799497,0.213041,0.441401,0.191848
1244086695.815000,10.120100,1.809780,2.337548,0.278558,3.950875,2.800170,0.212836,0.441189,0.191789
1244086695.835000,10.116972,1.808181,2.335719,0.278290,3.951359,2.800844,0.212635,0.440983,0.191705
1244086695.855000,10.113857,1.806582,2.333892,0.278021,3.951796,2.801526,0.212432,0.440759,0.191672
1244086695.875000,10.110757,1.804982,2.332067,0.277755,3.952200,2.802198,0.212230,0.440522,0.191668
1244086695.895000,10.107672,1.803382,2.330243,0.277490,3.952625,2.802869,0.212027,0.440303,0.191652
1244086695.915000,10.104602,1.801781,2.328421,0.277228,3.953034,2.803535,0.211827,0.440136,0.191637
1244086695.935000,10.101546,1.800179,2.326601,0.276965,3.953456,2.804198,0.211625,0.439946,0.191570
1244086695.955000,10.098503,1.798578,2.324783,0.276714,3.953876,2.804859,0.211424,0.439778,0.191559
1244086695.975000,10.095475,1.796976,2.322967,0.276464,3.954302,2.805520,0.211225,0.439607,0.191473
1244086695.995000,10.092461,1.795373,2.321153,0.276205,3.954714,2.806176,0.211030,0.439443,0.191477
1244086696.015000,10.089463,1.793770,2.319340,0.275942,3.955178,2.806845,0.210830,0.439268,0.191542
1244086696.035000,10.086478,1.792167,2.317529,0.275683,3.955672,2.807524,0.210638,0.439132,0.191495
1244086696.055000,10.083505,1.790564,2.315719,0.275422,3.956160,2.808198,0.210444,0.438941,0.191469
1244086696.075000,10.080544,1.788961,2.313912,0.275163,3.956631,2.808869,0.210253,0.438778,0.191463
1244086696.095000,10.077596,1.787358,2.312107,0.274912,3.957107,2.809528,0.210061,0.438643,0.191413
1244086696.115000,10.074660,1.785755,2.310305,0.274656,3.957558,2.810180,0.209875,0.438506,0.191404
1244086696.135000,10.071736,1.784151,2.308505,0.274405,3.957977,2.810827,0.209697,0.438354,0.191447
1244086696.155000,10.068823,1.782549,2.306708,0.274151,3.958395,2.811482,0.209523,0.438237,0.191464
1244086696.175000,10.065921,1.780946,2.304914,0.273900,3.958824,2.812126,0.209333,0.438105,0.191434
1244086696.195000,10.063030,1.779345,2.303122,0.273649,3.959239,2.812798,0.209151,0.437990,0.191413
1244086696.215000,10.060152,1.777743,2.301333,0.273414,3.959694,2.813475,0.208967,0.437872,0.191314
1244086743.124000,10.056393,1.777068,2.299609,0.274215,3.960255,2.814687,0.210842,0.438210,0.191466
1244086743.144000,10.052624,1.776413,2.297885,0.274944,3.960770,2.815874,0.212512,0.438589,0.191643
1244086743.164000,10.048846,1.775780,2.296160,0.275639,3.961331,2.817054,0.214223,0.438972,0.191979
1244086743.184000,10.045062,1.775170,2.294433,0.276518,3.961953,2.818257,0.215373,0.439259,0.191966
1244086743.204000,10.041271,1.774579,2.292703,0.277395,3.962604,2.819441,0.216838,0.439763,0.192060
1244086743.224000,10.037473,1.774010,2.290972,0.278306,3.963273,2.820597,0.218491,0.440143,0.192335
1244086743.244000,10.033668,1.773463,2.289238,0.279349,3.963933,2.821749,0.219943,0.440496,0.192759
1244086743.264000,10.029855,1.772938,2.287502,0.280324,3.964541,2.822892,0.221705,0.440961,0.193334
1244086743.284000,10.026032,1.772436,2.285763,0.281237,3.965194,2.824021,0.223272,0.441547,0.193813
1244086743.304000,10.022200,1.771956,2.284021,0.282219,3.965775,2.825133,0.224841,0.441966,0.194392
1244086743.326000,10.018358,1.771500,2.282276,0.283113,3.966343,2.826221,0.226378,0.442416,0.195001
1244086743.354000,10.014502,1.771068,2.280526,0.283972,3.966877,2.827334,0.227754,0.442764,0.195656
1244086743.374000,10.010638,1.770659,2.278774,0.284760,3.967359,2.828432,0.229276,0.443203,0.196362
1244086743.394000,10.006766,1.770271,2.277020,0.285591,3.967865,2.829531,0.230679,0.443636,0.197045
1244086743.414000,10.002888,1.769902,2.275264,0.286376,3.968366,2.830625,0.232056,0.444053,0.197870
1244086743.436000,9.999001,1.769557,2.273507,0.287073,3.968792,2.831717,0.233524,0.444490,0.198602
1244086743.464000,9.995097,1.769243,2.271746,0.287716,3.969261,2.832795,0.234863,0.444937,0.199031
1244086743.484000,9.991186,1.768951,2.269985,0.288432,3.969707,2.833862,0.236245,0.445396,0.199461
1244086743.504000,9.987267,1.768680,2.268223,0.289245,3.970168,2.834930,0.237580,0.445838,0.199803
1244086743.524000,9.983343,1.768429,2.266460,0.290011,3.970584,2.835990,0.238913,0.446309,0.200375
1244086743.544000,9.979411,1.768199,2.264697,0.290850,3.971006,2.837052,0.240228,0.446789,0.200795
1244086743.564000,9.975472,1.767992,2.262934,0.291550,3.971441,2.838106,0.241488,0.447232,0.201244
1244086743.584000,9.971526,1.767808,2.261170,0.292280,3.971844,2.839168,0.242842,0.447705,0.201734
1244086743.604000,9.967573,1.767646,2.259406,0.292873,3.972291,2.840209,0.244150,0.448132,0.202483
1244086743.624000,9.963616,1.767503,2.257640,0.293486,3.972733,2.841234,0.245388,0.448603,0.203349
1244086743.644000,9.959651,1.767382,2.255874,0.294134,3.973149,2.842271,0.246451,0.448996,0.203770
1244086743.664000,9.955680,1.767284,2.254108,0.294780,3.973560,2.843287,0.247485,0.449403,0.204348
1244086743.684000,9.951703,1.767208,2.252342,0.295493,3.974000,2.844310,0.248626,0.449835,0.204818
1244086743.704000,9.947720,1.767155,2.250575,0.296244,3.974448,2.845352,0.249715,0.450332,0.205362
1244086743.726000,9.943731,1.767123,2.248806,0.296901,3.974900,2.846369,0.250748,0.450766,0.206086
1244086743.754000,9.939728,1.767124,2.247034,0.297463,3.975363,2.847378,0.251735,0.451147,0.206760
1244086743.774000,9.935720,1.767148,2.245262,0.297952,3.975822,2.848378,0.252813,0.451569,0.207686
1244086743.794000,9.931707,1.767193,2.243488,0.298408,3.976267,2.849352,0.253856,0.451942,0.208303
1244086743.814000,9.927690,1.767258,2.241713,0.299057,3.976747,2.850347,0.254858,0.452406,0.209221
1244086743.836000,9.923666,1.767348,2.239937,0.299905,3.977209,2.851364,0.255797,0.452785,0.209909
1244086743.864000,9.919630,1.767472,2.238159,0.300554,3.977677,2.852351,0.256772,0.453234,0.210328
1244086743.884000,9.915588,1.767618,2.236380,0.301280,3.978155,2.853339,0.257759,0.453721,0.210914
1244086743.904000,9.911541,1.767787,2.234602,0.301941,3.978535,2.854312,0.258590,0.454226,0.211433
1244086743.924000,9.907490,1.767975,2.232824,0.302598,3.978965,2.855282,0.259544,0.454614,0.211982
1244086743.944000,9.903433,1.768187,2.231046,0.303277,3.979378,2.856254,0.260550,0.455132,0.212746
1244086743.964000,9.899372,1.768421,2.229268,0.303882,3.979743,2.857206,0.261622,0.455633,0.213370
1244086743.984000,9.895304,1.768680,2.227490,0.304438,3.980178,2.858171,0.262693,0.456005,0.214308
1244086744.004000,9.891232,1.768961,2.225713,0.305092,3.980509,2.859117,0.263549,0.456546,0.214974
1244086744.026000,9.887154,1.769264,2.223936,0.305972,3.980966,2.860092,0.265205,0.457282,0.215466
1244086744.046000,9.883068,1.769592,2.222159,0.306894,3.981447,2.861068,0.266473,0.457913,0.216308
1244086744.074000,9.878967,1.769955,2.220381,0.307836,3.981957,2.862057,0.267724,0.458469,0.216798
1244086744.094000,9.874859,1.770342,2.218603,0.308614,3.982462,2.863024,0.268890,0.458964,0.217396
1244086744.114000,9.870745,1.770752,2.216826,0.309307,3.982967,2.863966,0.270231,0.459657,0.217983
1244086744.136000,9.866624,1.771181,2.215049,0.310106,3.983533,2.864910,0.271530,0.460167,0.218633
1244086744.164000,9.862488,1.771644,2.213270,0.310801,3.984015,2.865831,0.272811,0.460678,0.219451
1244086744.184000,9.858344,1.772128,2.211492,0.311457,3.984505,2.866733,0.274191,0.461274,0.220544
1244086744.206000,9.854193,1.772637,2.209714,0.312223,3.985007,2.867636,0.275437,0.461817,0.221371
1244086744.236000,9.850026,1.773176,2.207934,0.313035,3.985518,2.868525,0.276809,0.462438,0.222399
1244086744.256000,9.845852,1.773738,2.206154,0.313928,3.986014,2.869395,0.278062,0.462974,0.223278
1244086744.276000,9.841671,1.774321,2.204376,0.314773,3.986480,2.870258,0.279466,0.463652,0.224039
1244086744.304000,9.837476,1.774936,2.202597,0.315671,3.986982,2.871117,0.280704,0.464207,0.224562
1244086744.326000,9.833274,1.775570,2.200818,0.316491,3.987508,2.871969,0.281929,0.464737,0.225263
1244086744.356000,9.829055,1.776237,2.199039,0.317271,3.987990,2.872822,0.283286,0.465303,0.225927
1244086744.376000,9.824829,1.776928,2.197261,0.317882,3.988464,2.873659,0.284617,0.465766,0.226753
1244086744.396000,9.820597,1.777640,2.195484,0.318528,3.988962,2.874490,0.286163,0.466199,0.227781
1244086744.424000,9.816352,1.778376,2.193708,0.319174,3.989402,2.875299,0.287860,0.466776,0.228567
1244086744.444000,9.812098,1.779136,2.191932,0.320007,3.989934,2.876129,0.289218,0.467223,0.229475
1244086744.464000,9.807839,1.779915,2.190158,0.320706,3.990376,2.876923,0.290570,0.467851,0.230175
1244086744.484000,9.803571,1.780717,2.188386,0.321530,3.990836,2.877733,0.291991,0.468453,0.230673
1244086744.504000,9.799297,1.781541,2.186616,0.322292,3.991306,2.878545,0.293248,0.468951,0.231364
1244086744.524000,9.795015,1.782387,2.184848,0.322935,3.991754,2.879353,0.294613,0.469513,0.232166
